{
  "airports": [
    { "id": "ABI", "name": "ABILENE RGNL", "city": "ABILENE", "country": "USA", "latitude": "32:24:40:N", "longitude": "99:40:54:U" },
    { "id": "ACK", "name": "NANTUCKET MEM", "city": "NANTUCKET", "country": "USA", "latitude": "41:15:10:N", "longitude": "70:03:36:U" },
    { "id": "ACT", "name": "WACO RGNL", "city": "WACO", "country": "USA", "latitude": "31:36:40:N", "longitude": "97:13:49:U" },
    { "id": "ACY", "name": "ATLANTIC CITY INTERNATIONAL", "city": "ATLANTIC CITY", "country": "USA", "latitude": "39:27:27:N", "longitude": "74:34:37:U" },
    { "id": "ADM", "name": "ARDMORE MUNI", "city": "ARDMORE", "country": "USA", "latitude": "34:18:11:N", "longitude": "97:01:10:U" },
    { "id": "ADW", "name": "ANDREWS AFB", "city": "CAMP SPRINGS", "country": "USA", "latitude": "38:48:38:N", "longitude": "76:52:01:U" },
    { "id": "AEX", "name": "ALEXANDRIA INTERNATIONAL", "city": "ALEXANDRIA", "country": "USA", "latitude": "31:19:38:N", "longitude": "92:32:54:U" },
    { "id": "AGS", "name": "AUGUSTA RGNL AT BUSH FLD", "city": "BUSH FIELD", "country": "USA", "latitude": "33:22:11:N", "longitude": "81:57:52:U" },
    { "id": "AKR", "name": "AKRON FULTON INTERNATIONAL", "city": "AKRON", "country": "USA", "latitude": "41:02:15:N", "longitude": "81:28:00:U" },
    { "id": "ALB", "name": "ALBANY INTERNATIONAL", "city": "ALBANY", "country": "USA", "latitude": "42:44:53:N", "longitude": "73:48:10:U" },
    { "id": "ALI", "name": "ALICE INTERNATIONAL", "city": "ALICE", "country": "USA", "latitude": "27:44:27:N", "longitude": "98:01:37:U" },
    { "id": "AMA", "name": "AMARILLO INTERNATIONAL", "city": "AMARILLO", "country": "USA", "latitude": "35:13:09:N", "longitude": "101:42:21:U" },
    { "id": "ANB", "name": "ANNISTON METROPOLITAN", "city": "ANNISTON", "country": "USA", "latitude": "33:35:17:N", "longitude": "85:51:29:U" },
    { "id": "AND", "name": "ANDERSON RGNL", "city": "ANDERSEN", "country": "USA", "latitude": "34:29:42:N", "longitude": "82:42:33:U" },
    { "id": "AOO", "name": "ALTOONA BLAIR CO", "city": "ALTOONA", "country": "USA", "latitude": "40:17:47:N", "longitude": "78:19:12:U" },
    { "id": "APG", "name": "PHILLIPS AAF", "city": "ABERDEEN", "country": "USA", "latitude": "39:27:58:N", "longitude": "76:10:10:U" },
    { "id": "ART", "name": "WATERTOWN INTERNATIONAL", "city": "WATERTOWN", "country": "USA", "latitude": "43:59:30:N", "longitude": "76:01:18:U" },
    { "id": "ATL", "name": "THE WILLIAM B HARTSFIELD ATLANTA INTERNATIONAL", "city": "ATLANTA", "country": "USA", "latitude": "33:38:25:N", "longitude": "84:25:37:U" },
    { "id": "AUG", "name": "AUGUSTA STATE", "city": "AUGUSTA", "country": "USA", "latitude": "44:19:14:N", "longitude": "69:47:50:U" },
    { "id": "AUS", "name": "AUSTIN BERGSTROM INTERNATIONAL", "city": "AUSTIN", "country": "USA", "latitude": "30:11:40:N", "longitude": "97:40:11:U" },
    { "id": "BAB", "name": "BEALE AFB", "city": "MARYSVILLE", "country": "USA", "latitude": "39:08:09:N", "longitude": "121:26:11:U" },
    { "id": "BAD", "name": "BARKSDALE AFB", "city": "SHREVEPORT", "country": "USA", "latitude": "32:30:06:N", "longitude": "93:39:45:U" },
    { "id": "BCT", "name": "BOCA RATON", "city": "BOCA RATON", "country": "USA", "latitude": "26:22:42:N", "longitude": "80:06:27:U" },
    { "id": "BDE", "name": "BAUDETTE INTERNATIONAL", "city": "BAUDETTE", "country": "USA", "latitude": "48:43:42:N", "longitude": "94:36:44:U" },
    { "id": "BDL", "name": "BRADLEY INTERNATIONAL", "city": "WINDSOR LOCKS", "country": "USA", "latitude": "41:56:20:N", "longitude": "72:40:59:U" },
    { "id": "BDR", "name": "IGOR I SIKORSKY MEM", "city": "STRATFORD", "country": "USA", "latitude": "41:09:48:N", "longitude": "73:07:34:U" },
    { "id": "BED", "name": "LAURENCE G HANSCOM FLD", "city": "BEDFORD", "country": "USA", "latitude": "42:28:11:N", "longitude": "71:17:20:U" },
    { "id": "BFI", "name": "BOEING FLD KING CO INTERNATIONAL", "city": "SEATTLE", "country": "USA", "latitude": "47:31:47:N", "longitude": "122:18:07:U" },
    { "id": "BFL", "name": "MEADOWS FLD", "city": "BAKERSFIELD", "country": "USA", "latitude": "35:26:00:N", "longitude": "119:03:24:U" },
    { "id": "BFM", "name": "MOBILE DOWNTOWN", "city": "MOBILE", "country": "USA", "latitude": "30:37:35:N", "longitude": "88:04:04:U" },
    { "id": "BGR", "name": "BANGOR INTERNATIONAL", "city": "BANGOR", "country": "USA", "latitude": "44:48:26:N", "longitude": "68:49:41:U" },
    { "id": "BHM", "name": "BIRMINGHAM INTERNATIONAL", "city": "BIRMINGHAM", "country": "USA", "latitude": "33:33:46:N", "longitude": "86:45:12:U" },
    { "id": "BIF", "name": "BIGGS AAF", "city": "EL PASO", "country": "USA", "latitude": "31:50:58:N", "longitude": "106:22:48:U" },
    { "id": "BIX", "name": "KEESLER AFB", "city": "BILOXI", "country": "USA", "latitude": "30:24:39:N", "longitude": "88:55:25:U" },
    { "id": "BKF", "name": "BUCKLEY AFB", "city": "BUCKLEY", "country": "USA", "latitude": "39:42:06:N", "longitude": "104:45:05:U" },
    { "id": "BLI", "name": "BELLINGHAM INTERNATIONAL", "city": "BELLINGHAM", "country": "USA", "latitude": "48:47:33:N", "longitude": "122:32:15:U" },
    { "id": "BLV", "name": "SCOTT AFB MIDAMERICA", "city": "BELLEVILLE", "country": "USA", "latitude": "38:32:42:N", "longitude": "89:50:06:U" },
    { "id": "BNA", "name": "NASHVILLE INTERNATIONAL", "city": "NASHVILLE", "country": "USA", "latitude": "36:07:28:N", "longitude": "86:40:41:U" },
    { "id": "BOI", "name": "BOISE AIR TERMINAL", "city": "BOISE", "country": "USA", "latitude": "43:33:51:N", "longitude": "116:13:22:U" },
    { "id": "BOS", "name": "GENERAL EDWARD LAWRENCE LOGAN INTERNATIONAL", "city": "BOSTON", "country": "USA", "latitude": "42:21:51:N", "longitude": "71:00:18:U" },
    { "id": "BPT", "name": "SOUTHEAST TEXAS RGNL", "city": "BEAUMONT", "country": "USA", "latitude": "29:57:03:N", "longitude": "94:01:14:U" },
    { "id": "BRO", "name": "BROWNSVILLE SOUTH PADRE ISLAND INTERNATIONAL", "city": "BROWNSVILLE", "country": "USA", "latitude": "25:54:24:N", "longitude": "97:25:33:U" },
    { "id": "BTR", "name": "BATON ROUGE METRO RYAN FLD", "city": "BATON ROUGE", "country": "USA", "latitude": "30:31:59:N", "longitude": "91:08:58:U" },
    { "id": "BTV", "name": "BURLINGTON INTERNATIONAL", "city": "BURLINGTON", "country": "USA", "latitude": "44:28:18:N", "longitude": "73:09:11:U" },
    { "id": "BUF", "name": "BUFFALO NIAGARA INTERNATIONAL", "city": "BUFFALO", "country": "USA", "latitude": "42:56:25:N", "longitude": "78:43:55:U" },
    { "id": "BUR", "name": "BURBANK GLENDALE PASADENA", "city": "BURBANK", "country": "USA", "latitude": "34:12:02:N", "longitude": "118:21:31:U" },
    { "id": "BWI", "name": "BALTIMORE WASHINGTON INTERNATIONAL", "city": "BALTIMORE", "country": "USA", "latitude": "39:10:31:N", "longitude": "76:40:06:U" },
    { "id": "BYH", "name": "ARKANSAS INTERNATIONAL", "city": "BLYTHEVILLE", "country": "USA", "latitude": "35:57:51:N", "longitude": "89:56:36:U" },
    { "id": "BYS", "name": "BICYCLE LAKE AAF", "city": "FORT IRWIN", "country": "USA", "latitude": "35:16:49:N", "longitude": "116:37:48:U" },
    { "id": "CAE", "name": "COLUMBIA METROPOLITAN", "city": "COLOMBIA", "country": "USA", "latitude": "33:56:19:N", "longitude": "81:07:10:U" },
    { "id": "CAR", "name": "CARIBOU MUNI", "city": "CARIBOU", "country": "USA", "latitude": "46:52:17:N", "longitude": "68:01:04:U" },
    { "id": "CBM", "name": "COLUMBUS AFB", "city": "COLOMBUS", "country": "USA", "latitude": "33:38:38:N", "longitude": "88:26:37:U" },
    { "id": "CDC", "name": "CEDAR CITY RGNL", "city": "CEDAR CITY", "country": "USA", "latitude": "37:42:03:N", "longitude": "113:05:55:U" },
    { "id": "CDS", "name": "CHILDRESS MUNI", "city": "CHILDRESS", "country": "USA", "latitude": "34:26:01:N", "longitude": "100:17:17:U" },
    { "id": "CEF", "name": "WESTOVER ARB METROPOLITAN", "city": "CHICOPEE FALLS", "country": "USA", "latitude": "42:11:53:N", "longitude": "72:32:03:U" },
    { "id": "CEW", "name": "BOB SIKES", "city": "CRESTVIEW", "country": "USA", "latitude": "30:46:43:N", "longitude": "86:31:19:U" },
    { "id": "CFD", "name": "COULTER FLD", "city": "BRYAN", "country": "USA", "latitude": "30:42:56:N", "longitude": "96:19:52:U" },
    { "id": "CHA", "name": "LOVELL FLD", "city": "CHATTANOOGA", "country": "USA", "latitude": "35:02:07:N", "longitude": "85:12:13:U" },
    { "id": "CHS", "name": "CHARLESTON AFB INTERNATIONAL", "city": "CHARLESTON", "country": "USA", "latitude": "32:53:55:N", "longitude": "80:02:25:U" },
    { "id": "CIC", "name": "CHICO MUNI", "city": "CHICO", "country": "USA", "latitude": "39:47:43:N", "longitude": "121:51:30:U" },
    { "id": "CLE", "name": "CLEVELAND HOPKINS INTERNATIONAL", "city": "CLEVELAND", "country": "USA", "latitude": "41:24:42:N", "longitude": "81:50:59:U" },
    { "id": "CLL", "name": "EASTERWOOD FLD", "city": "COLLEGE STATION", "country": "USA", "latitude": "30:35:18:N", "longitude": "96:21:49:U" },
    { "id": "CLT", "name": "CHARLOTTE DOUGLAS INTERNATIONAL", "city": "CHARLOTTE", "country": "USA", "latitude": "35:12:50:N", "longitude": "80:56:35:U" },
    { "id": "CMH", "name": "PORT COLUMBUS INTERNATIONAL", "city": "COLUMBUS", "country": "USA", "latitude": "39:59:52:N", "longitude": "82:53:30:U" },
    { "id": "CNM", "name": "CAVERN CITY AIR TERMINAL", "city": "CARLSBAD", "country": "USA", "latitude": "32:20:14:N", "longitude": "104:15:47:U" },
    { "id": "CNW", "name": "TSTC WACO", "city": "WACO", "country": "USA", "latitude": "31:38:16:N", "longitude": "97:04:26:U" },
    { "id": "COF", "name": "PATRICK AFB", "city": "COCO BEACH", "country": "USA", "latitude": "28:14:05:N", "longitude": "80:36:36:U" },
    { "id": "COS", "name": "CITY OF COLORADO SPRINGS MUNI", "city": "COLORADO SPRINGS", "country": "USA", "latitude": "38:48:20:N", "longitude": "104:42:00:U" },
    { "id": "COT", "name": "COTULLA LA SALLE CO", "city": "COTULLA", "country": "USA", "latitude": "28:27:29:N", "longitude": "99:13:12:U" },
    { "id": "COU", "name": "COLUMBIA RGNL", "city": "COLUMBIA", "country": "USA", "latitude": "38:49:05:N", "longitude": "92:13:10:U" },
    { "id": "CPR", "name": "NATRONA CO INTERNATIONAL", "city": "CASPER", "country": "USA", "latitude": "42:54:28:N", "longitude": "106:27:51:U" },
    { "id": "CRP", "name": "CORPUS CHRISTI INTERNATIONAL", "city": "CORPUS CHRISTI", "country": "USA", "latitude": "27:46:13:N", "longitude": "97:30:04:U" },
    { "id": "CTB", "name": "CUT BANK MUNI", "city": "CUTBANK", "country": "USA", "latitude": "48:36:30:N", "longitude": "112:22:34:U" },
    { "id": "CVG", "name": "CINCINNATI NORTHERN KENTUCKY INTERNATIONAL", "city": "CINCINNATI", "country": "USA", "latitude": "39:02:46:N", "longitude": "84:39:43:U" },
    { "id": "CVS", "name": "CANNON AFB", "city": "CLOVIS", "country": "USA", "latitude": "34:22:57:N", "longitude": "103:19:19:U" },
    { "id": "CXL", "name": "CALEXICO INTERNATIONAL", "city": "CALEXICO", "country": "USA", "latitude": "32:40:10:N", "longitude": "115:30:47:U" },
    { "id": "CXO", "name": "MONTGOMERY CO", "city": "CONROE", "country": "USA", "latitude": "30:21:06:N", "longitude": "95:24:52:U" },
    { "id": "CYS", "name": "CHEYENNE", "city": "CHEYENNE", "country": "USA", "latitude": "41:09:20:N", "longitude": "104:48:42:U" },
    { "id": "DAL", "name": "DALLAS LOVE FLD", "city": "DALLAS", "country": "USA", "latitude": "32:50:49:N", "longitude": "96:51:06:U" },
    { "id": "DAY", "name": "JAMES M COX DAYTON INTERNATIONAL", "city": "DAYTON", "country": "USA", "latitude": "39:54:08:N", "longitude": "84:13:09:U" },
    { "id": "DCA", "name": "RONALD REAGAN WASHINGTON NATIONAL", "city": "WASHINGTON", "country": "USA", "latitude": "38:51:07:N", "longitude": "77:02:15:U" },
    { "id": "DEN", "name": "DENVER INTERNATIONAL", "city": "DENVER", "country": "USA", "latitude": "39:51:30:N", "longitude": "104:40:01:U" },
    { "id": "DET", "name": "DETROIT CITY", "city": "DETROIT", "country": "USA", "latitude": "42:24:33:N", "longitude": "83:00:35:U" },
    { "id": "DFW", "name": "DALLAS FORT WORTH INTERNATIONAL", "city": "DALLAS-FORT WORTH", "country": "USA", "latitude": "32:53:47:N", "longitude": "97:02:15:U" },
    { "id": "DHN", "name": "DOTHAN RGNL", "city": "DOTHAN", "country": "USA", "latitude": "31:19:16:N", "longitude": "85:26:58:U" },
    { "id": "DHT", "name": "DALHART MUNI", "city": "DALHART", "country": "USA", "latitude": "36:01:21:N", "longitude": "102:32:50:U" },
    { "id": "DLF", "name": "LAUGHLIN AFB", "city": "DEL RIO", "country": "USA", "latitude": "29:21:34:N", "longitude": "100:46:40:U" },
    { "id": "DLH", "name": "DULUTH INTERNATIONAL", "city": "DULUTH", "country": "USA", "latitude": "46:50:31:N", "longitude": "92:11:37:U" },
    { "id": "DMA", "name": "DAVIS MONTHAN AFB", "city": "TUCSON", "country": "USA", "latitude": "32:09:59:N", "longitude": "110:52:59:U" },
    { "id": "DOV", "name": "DOVER AFB", "city": "DOVER", "country": "USA", "latitude": "39:07:48:N", "longitude": "75:27:59:U" },
    { "id": "DPA", "name": "DU PAGE", "city": "WEST CHICAGO", "country": "USA", "latitude": "41:54:28:N", "longitude": "88:14:55:U" },
    { "id": "DRI", "name": "BEAUREGARD PARISH", "city": "DERIDDER", "country": "USA", "latitude": "30:49:54:N", "longitude": "93:20:23:U" },
    { "id": "DRO", "name": "DURANGO LA PLATA CO", "city": "DURANGO", "country": "USA", "latitude": "37:09:05:N", "longitude": "107:45:13:U" },
    { "id": "DRT", "name": "DEL RIO INTERNATIONAL", "city": "DEL RIO", "country": "USA", "latitude": "29:22:22:N", "longitude": "100:55:33:U" },
    { "id": "DSM", "name": "DES MOINES INTERNATIONAL", "city": "DES MOINES", "country": "USA", "latitude": "41:32:02:N", "longitude": "93:39:45:U" },
    { "id": "DTW", "name": "DETROIT METRO WAYNE CO", "city": "DETROIT", "country": "USA", "latitude": "42:12:44:N", "longitude": "83:21:12:U" },
    { "id": "DUG", "name": "BISBEE DOUGLAS INTERNATIONAL", "city": "DOUGLAS", "country": "USA", "latitude": "31:28:08:N", "longitude": "109:36:13:U" },
    { "id": "DYS", "name": "DYESS AFB", "city": "ABILENE", "country": "USA", "latitude": "32:25:14:N", "longitude": "99:51:16:U" },
    { "id": "ECG", "name": "ELIZABETH CITY CGAS RGNL", "city": "ELIZABETH CITY", "country": "USA", "latitude": "36:15:38:N", "longitude": "76:10:28:U" },
    { "id": "EDW", "name": "EDWARDS AFB", "city": "EDWARDS AFB", "country": "USA", "latitude": "34:54:19:N", "longitude": "117:53:01:U" },
    { "id": "EFD", "name": "ELLINGTON FLD", "city": "HOUSTON", "country": "USA", "latitude": "29:36:26:N", "longitude": "95:09:31:U" },
    { "id": "EGP", "name": "EAGLE PASS MUNI", "city": "EAGLE PASS", "country": "USA", "latitude": "28:42:00:N", "longitude": "100:28:46:U" },
    { "id": "EKN", "name": "ELKINS RANDOLPH CO JENNINGS RANDOLPH", "city": "ELKINS", "country": "USA", "latitude": "38:53:22:N", "longitude": "79:51:25:U" },
    { "id": "ELD", "name": "SOUTH ARKANSAS RGNL AT GOODWIN FLD", "city": "EL DORADO", "country": "USA", "latitude": "33:13:15:N", "longitude": "92:48:47:U" },
    { "id": "ELP", "name": "EL PASO INTERNATIONAL", "city": "EL PASO", "country": "USA", "latitude": "31:48:24:N", "longitude": "106:22:40:U" },
    { "id": "END", "name": "VANCE AFB", "city": "ENID", "country": "USA", "latitude": "36:20:23:N", "longitude": "97:54:58:U" },
    { "id": "ENV", "name": "WENDOVER", "city": "WENDOVER", "country": "USA", "latitude": "40:43:07:N", "longitude": "114:01:51:U" },
    { "id": "ESF", "name": "ESLER RGNL", "city": "ALEXANDRIA", "country": "USA", "latitude": "31:23:41:N", "longitude": "92:17:44:U" },
    { "id": "EWN", "name": "CRAVEN CO RGNL", "city": "NEW BERN", "country": "USA", "latitude": "35:04:22:N", "longitude": "77:02:34:U" },
    { "id": "EWR", "name": "NEWARK LIBERTY INTERNATIONAL", "city": "NEWARK", "country": "USA", "latitude": "40:41:32:N", "longitude": "74:10:07:U" },
    { "id": "EYW", "name": "KEY WEST INTERNATIONAL", "city": "KEY WEST", "country": "USA", "latitude": "24:33:22:N", "longitude": "81:45:34:U" },
    { "id": "FAF", "name": "FELKER AAF", "city": "FORT EUSTIS", "country": "USA", "latitude": "37:07:57:N", "longitude": "76:36:31:U" },
    { "id": "FAT", "name": "FRESNO YOSEMITE INTERNATIONAL", "city": "FRESNO", "country": "USA", "latitude": "36:46:34:N", "longitude": "119:43:05:U" },
    { "id": "FCS", "name": "BUTTS AAF", "city": "FORT CARSON", "country": "USA", "latitude": "38:40:42:N", "longitude": "104:45:23:U" },
    { "id": "FFO", "name": "WRIGHT PATTERSON AFB", "city": "DAYTON", "country": "USA", "latitude": "39:49:34:N", "longitude": "84:02:54:U" },
    { "id": "FHU", "name": "SIERRA VISTA MUNI LIBBY AAF", "city": "FORT HUACHUCA", "country": "USA", "latitude": "31:35:18:N", "longitude": "110:20:39:U" },
    { "id": "FLL", "name": "FORT LAUDERDALE HOLLYWOOD INTERNATIONAL", "city": "FORT LAUDERDALE", "country": "USA", "latitude": "26:04:21:N", "longitude": "80:09:09:U" },
    { "id": "FLO", "name": "FLORENCE RGNL", "city": "FLORENCE", "country": "USA", "latitude": "34:11:07:N", "longitude": "79:43:26:U" },
    { "id": "FLV", "name": "SHERMAN AAF", "city": "FORT LEAVENWORTH", "country": "USA", "latitude": "39:22:06:N", "longitude": "94:54:52:U" },
    { "id": "N/A", "name": "TIPTON", "city": "FORT MEADE", "country": "USA", "latitude": "39:05:07:N", "longitude": "76:45:33:U" },
    { "id": "FMH", "name": "OTIS ANGB", "city": "FALMOUTH", "country": "USA", "latitude": "41:39:30:N", "longitude": "70:31:17:U" },
    { "id": "FMN", "name": "FOUR CORNERS RGNL", "city": "FARMINGTON", "country": "USA", "latitude": "36:44:28:N", "longitude": "108:13:47:U" },
    { "id": "FMY", "name": "PAGE FLD", "city": "FORT MYERS", "country": "USA", "latitude": "26:35:11:N", "longitude": "81:51:47:U" },
    { "id": "FOD", "name": "FORT DODGE RGNL", "city": "FORT DODGE", "country": "USA", "latitude": "42:33:05:N", "longitude": "94:11:33:U" },
    { "id": "FOE", "name": "FORBES FLD", "city": "TOPEKA", "country": "USA", "latitude": "38:57:03:N", "longitude": "95:39:49:U" },
    { "id": "FOK", "name": "THE FRANCIS S GABRESKI", "city": "WEST HAMPTON BEACH", "country": "USA", "latitude": "40:50:37:N", "longitude": "72:37:54:U" },
    { "id": "FRI", "name": "MARSHALL AAF", "city": "FORT RILEY", "country": "USA", "latitude": "39:03:18:N", "longitude": "96:45:52:U" },
    { "id": "FSI", "name": "HENRY POST AAF", "city": "FORT SILL", "country": "USA", "latitude": "34:38:59:N", "longitude": "98:24:07:U" },
    { "id": "FSM", "name": "FORT SMITH RGNL", "city": "FORT SMITH", "country": "USA", "latitude": "35:20:11:N", "longitude": "94:22:02:U" },
    { "id": "FTK", "name": "GODMAN AAF", "city": "FORT KNOX", "country": "USA", "latitude": "37:54:25:N", "longitude": "85:58:19:U" },
    { "id": "FTW", "name": "FORT WORTH MEACHAM INTERNATIONAL", "city": "FORT WORTH", "country": "USA", "latitude": "32:49:11:N", "longitude": "97:21:44:U" },
    { "id": "FXE", "name": "FORT LAUDERDALE EXECUTIVE", "city": "FORT LAUDERDALE", "country": "USA", "latitude": "26:11:50:N", "longitude": "80:10:14:U" },
    { "id": "FYV", "name": "DRAKE FLD", "city": "FAYETTEVILLE", "country": "USA", "latitude": "36:00:18:N", "longitude": "94:10:12:U" },
    { "id": "GAG", "name": "GAGE", "city": "GAGE", "country": "USA", "latitude": "36:17:43:N", "longitude": "99:46:35:U" },
    { "id": "GCK", "name": "GARDEN CITY RGNL", "city": "GARDEN CITY", "country": "USA", "latitude": "37:55:39:N", "longitude": "100:43:27:U" },
    { "id": "GEG", "name": "SPOKANE INTERNATIONAL", "city": "SPOKANE", "country": "USA", "latitude": "47:37:11:N", "longitude": "117:32:01:U" },
    { "id": "GFK", "name": "GRAND FORKS INTERNATIONAL", "city": "GRAND FORKS", "country": "USA", "latitude": "47:56:57:N", "longitude": "97:10:34:U" },
    { "id": "GGG", "name": "EAST TEXAS RGNL", "city": "LONGVIEW", "country": "USA", "latitude": "32:23:05:N", "longitude": "94:42:41:U" },
    { "id": "GLS", "name": "SCHOLES INTERNATIONAL AT GALVESTON", "city": "GALVESTON", "country": "USA", "latitude": "29:15:55:N", "longitude": "94:51:37:U" },
    { "id": "GNT", "name": "GRANTS MILAN MUNI", "city": "GRANTS", "country": "USA", "latitude": "35:09:55:N", "longitude": "107:54:02:U" },
    { "id": "GNV", "name": "GAINESVILLE RGNL", "city": "GAINESVILLE", "country": "USA", "latitude": "29:41:24:N", "longitude": "82:16:18:U" },
    { "id": "GRB", "name": "AUSTIN STRAUBEL INTERNATIONAL", "city": "GREEN BAY", "country": "USA", "latitude": "44:29:06:N", "longitude": "88:07:46:U" },
    { "id": "GRF", "name": "GRAY AAF", "city": "FORT LEWIS", "country": "USA", "latitude": "47:04:45:N", "longitude": "122:34:50:U" },
    { "id": "GRK", "name": "ROBERT GRAY AAF", "city": "KILLEEN", "country": "USA", "latitude": "31:04:02:N", "longitude": "97:49:44:U" },
    { "id": "GRR", "name": "GERALD R FORD INTERNATIONAL", "city": "GRAND RAPIDS", "country": "USA", "latitude": "42:52:51:N", "longitude": "85:31:22:U" },
    { "id": "GSB", "name": "SEYMOUR JOHNSON AFB", "city": "GOLDSBORO", "country": "USA", "latitude": "35:20:21:N", "longitude": "77:57:38:U" },
    { "id": "GTB", "name": "WHEELER SACK AAF", "city": "FORT DRUM", "country": "USA", "latitude": "44:03:20:N", "longitude": "75:43:10:U" },
    { "id": "GTF", "name": "GREAT FALLS INTERNATIONAL", "city": "GREAT FALLS", "country": "USA", "latitude": "47:28:55:N", "longitude": "111:22:14:U" },
    { "id": "GUS", "name": "GRISSOM ARB", "city": "PERU", "country": "USA", "latitude": "40:38:53:N", "longitude": "86:09:07:U" },
    { "id": "GVT", "name": "MAJORS", "city": "GREENVILE", "country": "USA", "latitude": "33:04:04:N", "longitude": "96:03:55:U" },
    { "id": "GVW", "name": "RICHARDS GEBAUR MEMORIAL", "city": "GRANDVIEW", "country": "USA", "latitude": "38:50:36:N", "longitude": "94:33:38:U" },
    { "id": "GWO", "name": "GREENWOOD LEFLORE", "city": "GREENWOOD", "country": "USA", "latitude": "33:29:39:N", "longitude": "90:05:04:U" },
    { "id": "HBR", "name": "HOBART MUNI", "city": "HOBART", "country": "USA", "latitude": "34:59:28:N", "longitude": "99:03:04:U" },
    { "id": "HFD", "name": "HARTFORD BRAINARD", "city": "HARTFORD", "country": "USA", "latitude": "41:44:10:N", "longitude": "72:39:00:U" },
    { "id": "HHR", "name": "JACK NORTHROP FLD HAWTHORNE MUNI", "city": "HAWTHORNE", "country": "USA", "latitude": "33:55:22:N", "longitude": "118:20:06:U" },
    { "id": "HIB", "name": "CHISHOLM HIBBING", "city": "HIBBING", "country": "USA", "latitude": "47:23:11:N", "longitude": "92:50:20:U" },
    { "id": "HIF", "name": "HILL AFB", "city": "OGDEN", "country": "USA", "latitude": "41:07:26:N", "longitude": "111:58:22:U" },
    { "id": "HKY", "name": "HICKORY RGNL", "city": "HICKORY", "country": "USA", "latitude": "35:44:28:N", "longitude": "81:23:22:U" },
    { "id": "HLN", "name": "HELENA RGNL", "city": "HELENA", "country": "USA", "latitude": "46:36:24:N", "longitude": "111:58:57:U" },
    { "id": "HLR", "name": "HOOD AAF", "city": "FORT HOOD", "country": "USA", "latitude": "31:08:19:N", "longitude": "97:42:52:U" },
    { "id": "HMN", "name": "HOLLOMAN AFB", "city": "ALAMOGORDO", "country": "USA", "latitude": "32:51:09:N", "longitude": "106:06:23:U" },
    { "id": "HOB", "name": "LEA CO RGNL", "city": "HOBBS", "country": "USA", "latitude": "32:41:15:N", "longitude": "103:13:01:U" },
    { "id": "HON", "name": "HURON RGNL", "city": "HURON", "country": "USA", "latitude": "44:23:06:N", "longitude": "98:13:42:U" },
    { "id": "HOP", "name": "CAMPBELL AAF", "city": "HOPKINSVILLE", "country": "USA", "latitude": "36:40:06:N", "longitude": "87:29:46:U" },
    { "id": "HOU", "name": "WILLIAM P HOBBY", "city": "HOUSTON", "country": "USA", "latitude": "29:38:43:N", "longitude": "95:16:44:U" },
    { "id": "HPN", "name": "WESTCHESTER CO", "city": "WHITE PLAINS", "country": "USA", "latitude": "41:04:01:N", "longitude": "73:42:27:U" },
    { "id": "HRL", "name": "VALLEY INTERNATIONAL", "city": "HARLINGEN", "country": "USA", "latitude": "26:13:42:N", "longitude": "97:39:15:U" },
    { "id": "HRO", "name": "BOONE CO", "city": "HARRISON", "country": "USA", "latitude": "36:15:41:N", "longitude": "93:09:17:U" },
    { "id": "HRT", "name": "HURLBURT FLD", "city": "MARY ESTHER", "country": "USA", "latitude": "30:25:40:N", "longitude": "86:41:21:U" },
    { "id": "HST", "name": "HOMESTEAD ARB", "city": "HOMESTEAD", "country": "USA", "latitude": "25:29:18:N", "longitude": "80:23:01:U" },
    { "id": "HTL", "name": "ROSCOMMON CO", "city": "HOUGHTON LAKE", "country": "USA", "latitude": "44:21:35:N", "longitude": "84:40:16:U" },
    { "id": "HUA", "name": "REDSTONE AAF", "city": "REDSTONE", "country": "USA", "latitude": "34:40:43:N", "longitude": "86:41:05:U" },
    { "id": "HUF", "name": "TERRE HAUTE INTERNATIONAL HULMAN FLD", "city": "TERRE HAUTE", "country": "USA", "latitude": "39:27:05:N", "longitude": "87:18:27:U" },
    { "id": "HUL", "name": "HOULTON INTERNATIONAL", "city": "HOULTON", "country": "USA", "latitude": "46:07:23:N", "longitude": "67:47:31:U" },
    { "id": "HVR", "name": "HAVRE CITY CO", "city": "HAVRE", "country": "USA", "latitude": "48:32:34:N", "longitude": "109:45:44:U" },
    { "id": "HWO", "name": "NORTH PERRY", "city": "HOLLYWOOD", "country": "USA", "latitude": "26:00:05:N", "longitude": "80:14:25:U" },
    { "id": "IAB", "name": "MC CONNELL AFB", "city": "WICHITA", "country": "USA", "latitude": "37:37:22:N", "longitude": "97:16:02:U" },
    { "id": "IAD", "name": "WASHINGTON DULLES INTERNATIONAL", "city": "WASHINGTON", "country": "USA", "latitude": "38:56:40:N", "longitude": "77:27:20:U" },
    { "id": "IAG", "name": "NIAGARA FALLS INTERNATIONAL", "city": "NIAGARA FALLS", "country": "USA", "latitude": "43:06:26:N", "longitude": "78:56:46:U" },
    { "id": "IAH", "name": "GEORGE BUSH INTCNTL HOUSTON", "city": "HOUSTON", "country": "USA", "latitude": "29:58:49:N", "longitude": "95:20:23:U" },
    { "id": "ICT", "name": "WICHITA MID CONTINENT", "city": "WICHITA", "country": "USA", "latitude": "37:38:59:N", "longitude": "97:25:59:U" },
    { "id": "IKK", "name": "GREATER KANKAKEE", "city": "KANKAKEE", "country": "USA", "latitude": "41:04:17:N", "longitude": "87:50:46:U" },
    { "id": "ABQ", "name": "ALBUQUERQUE INTERNATIONAL SUNPORT", "city": "KIRTLAND A.F.B.", "country": "USA", "latitude": "35:02:24:N", "longitude": "106:36:33:U" },
    { "id": "ILG", "name": "NEW CASTLE CO", "city": "WILMINGTON", "country": "USA", "latitude": "39:40:43:N", "longitude": "75:36:23:U" },
    { "id": "ILM", "name": "WILMINGTON INTERNATIONAL", "city": "WILMINGTON", "country": "USA", "latitude": "34:16:14:N", "longitude": "77:54:09:U" },
    { "id": "IND", "name": "INDIANAPOLIS INTERNATIONAL", "city": "INDIANAPOLIS", "country": "USA", "latitude": "39:43:02:N", "longitude": "86:17:39:U" },
    { "id": "INK", "name": "WINKLER CO", "city": "WINK", "country": "USA", "latitude": "31:46:46:N", "longitude": "103:12:04:U" },
    { "id": "INL", "name": "FALLS INTERNATIONAL", "city": "INTERNATIONAL FALLS", "country": "USA", "latitude": "48:33:58:N", "longitude": "93:24:11:U" },
    { "id": "INS", "name": "INDIAN SPRINGS AF AUX", "city": "INDIAN SPRINGS", "country": "USA", "latitude": "36:35:13:N", "longitude": "115:40:24:U" },
    { "id": "INT", "name": "SMITH REYNOLDS", "city": "WINSTON-SALEM", "country": "USA", "latitude": "36:08:01:N", "longitude": "80:13:19:U" },
    { "id": "IPL", "name": "IMPERIAL CO", "city": "IMPERIAL", "country": "USA", "latitude": "32:50:03:N", "longitude": "115:34:43:U" },
    { "id": "IPT", "name": "WILLIAMSPORT RGNL", "city": "WILLIAMSPORT", "country": "USA", "latitude": "41:14:31:N", "longitude": "76:55:16:U" },
    { "id": "ISN", "name": "SLOULIN FLD INTERNATIONAL", "city": "WILLISTON", "country": "USA", "latitude": "48:10:40:N", "longitude": "103:38:32:U" },
    { "id": "ISP", "name": "LONG ISLAND MAC ARTHUR", "city": "ISLIP", "country": "USA", "latitude": "40:47:42:N", "longitude": "73:06:00:U" },
    { "id": "JAN", "name": "JACKSON INTERNATIONAL", "city": "JACKSON", "country": "USA", "latitude": "32:18:40:N", "longitude": "90:04:33:U" },
    { "id": "JAX", "name": "JACKSONVILLE INTERNATIONAL", "city": "JACKSONVILLE", "country": "USA", "latitude": "30:29:38:N", "longitude": "81:41:16:U" },
    { "id": "JBR", "name": "JONESBORO MUNI", "city": "JONESBORO", "country": "USA", "latitude": "35:49:54:N", "longitude": "90:38:46:U" },
    { "id": "JFK", "name": "JOHN F KENNEDY INTERNATIONAL", "city": "NEW YORK", "country": "USA", "latitude": "40:38:23:N", "longitude": "73:46:44:U" },
    { "id": "LAN", "name": "CAPITAL CITY", "city": "LANSING", "country": "USA", "latitude": "42:46:43:N", "longitude": "84:35:14:U" },
    { "id": "LAS", "name": "MC CARRAN INTERNATIONAL", "city": "LAS VEGAS", "country": "USA", "latitude": "36:04:49:N", "longitude": "115:09:08:U" },
    { "id": "LAX", "name": "LOS ANGELES INTERNATIONAL", "city": "LOS ANGELES", "country": "USA", "latitude": "33:56:33:N", "longitude": "118:24:29:U" },
    { "id": "LBB", "name": "LUBBOCK INTERNATIONAL", "city": "LUBBOCK", "country": "USA", "latitude": "33:39:49:N", "longitude": "101:49:22:U" },
    { "id": "LCH", "name": "LAKE CHARLES RGNL", "city": "LAKE CHARLES", "country": "USA", "latitude": "30:07:34:N", "longitude": "93:13:24:U" },
    { "id": "LCK", "name": "RICKENBACKER INTERNATIONAL", "city": "COLUMBUS", "country": "USA", "latitude": "39:48:49:N", "longitude": "82:55:40:U" },
    { "id": "LFI", "name": "LANGLEY AFB", "city": "HAMPTON", "country": "USA", "latitude": "37:04:58:N", "longitude": "76:21:37:U" },
    { "id": "LFK", "name": "ANGELINA CO", "city": "LUFKIN", "country": "USA", "latitude": "31:14:02:N", "longitude": "94:45:00:U" },
    { "id": "LFT", "name": "LAFAYETTE RGNL", "city": "LAFAYETTE", "country": "USA", "latitude": "30:12:19:N", "longitude": "91:59:15:U" },
    { "id": "LGA", "name": "LA GUARDIA", "city": "NEW YORK", "country": "USA", "latitude": "40:46:38:N", "longitude": "73:52:21:U" },
    { "id": "LGB", "name": "LONG BEACH", "city": "LONG BEACH", "country": "USA", "latitude": "33:49:03:N", "longitude": "118:09:05:U" },
    { "id": "LHW", "name": "WRIGHT AAF", "city": "WRIGHT", "country": "USA", "latitude": "31:53:20:N", "longitude": "81:33:44:U" },
    { "id": "LIT", "name": "ADAMS FLD", "city": "LITTLE ROCK", "country": "USA", "latitude": "34:43:46:N", "longitude": "92:13:27:U" },
    { "id": "LNA", "name": "PALM BEACH CO PARK", "city": "WEST PALM BEACH", "country": "USA", "latitude": "26:35:34:N", "longitude": "80:05:06:U" },
    { "id": "LNK", "name": "LINCOLN MUNI", "city": "LINCOLN", "country": "USA", "latitude": "40:51:03:N", "longitude": "96:45:33:U" },
    { "id": "LOU", "name": "BOWMAN FLD", "city": "LOUISVILLE", "country": "USA", "latitude": "38:13:40:N", "longitude": "85:39:49:U" },
    { "id": "LRD", "name": "LAREDO INTERNATIONAL", "city": "LAREDO", "country": "USA", "latitude": "27:32:37:N", "longitude": "99:27:41:U" },
    { "id": "LRF", "name": "LITTLE ROCK AFB", "city": "JACKSONVILLE", "country": "USA", "latitude": "34:55:05:N", "longitude": "92:08:47:U" },
    { "id": "LSF", "name": "LAWSON AAF", "city": "FORT BENNING", "country": "USA", "latitude": "32:20:14:N", "longitude": "84:59:28:U" },
    { "id": "LSV", "name": "NELLIS AFB", "city": "LAS VEGAS", "country": "USA", "latitude": "36:14:10:N", "longitude": "115:02:03:U" },
    { "id": "LTS", "name": "ALTUS AFB", "city": "ALTUS", "country": "USA", "latitude": "34:40:01:N", "longitude": "99:16:00:U" },
    { "id": "LUF", "name": "LUKE AFB", "city": "PHOENIX", "country": "USA", "latitude": "33:32:06:N", "longitude": "112:22:59:U" },
    { "id": "LUK", "name": "CINCINNATI MUNI LUNKEN FLD", "city": "CINCINNATI", "country": "USA", "latitude": "39:06:12:N", "longitude": "84:25:07:U" },
    { "id": "MAF", "name": "MIDLAND INTERNATIONAL", "city": "MIDLAND", "country": "USA", "latitude": "31:56:33:N", "longitude": "102:12:06:U" },
    { "id": "MCC", "name": "MC CLELLAN AFLD", "city": "SACRAMENTO", "country": "USA", "latitude": "38:40:03:N", "longitude": "121:24:02:U" },
    { "id": "MCF", "name": "MACDILL AFB", "city": "TAMPA", "country": "USA", "latitude": "27:50:57:N", "longitude": "82:31:16:U" },
    { "id": "MCI", "name": "KANSAS CITY INTERNATIONAL", "city": "KANSAS CITY", "country": "USA", "latitude": "39:17:51:N", "longitude": "94:42:50:U" },
    { "id": "MCN", "name": "MIDDLE GEORGIA RGNL", "city": "MACON", "country": "USA", "latitude": "32:41:34:N", "longitude": "83:38:57:U" },
    { "id": "MCO", "name": "ORLANDO INTERNATIONAL", "city": "ORLANDO", "country": "USA", "latitude": "28:25:44:N", "longitude": "81:18:57:U" },
    { "id": "MDT", "name": "HARRISBURG INTERNATIONAL", "city": "HARRISBURG", "country": "USA", "latitude": "40:11:36:N", "longitude": "76:45:48:U" },
    { "id": "MDW", "name": "CHICAGO MIDWAY INTERNATIONAL", "city": "CHICAGO", "country": "USA", "latitude": "41:47:09:N", "longitude": "87:45:08:U" },
    { "id": "MEM", "name": "MEMPHIS INTERNATIONAL", "city": "MEMPHIS", "country": "USA", "latitude": "35:02:32:N", "longitude": "89:58:36:U" },
    { "id": "MER", "name": "CASTLE", "city": "MERCED", "country": "USA", "latitude": "37:22:49:N", "longitude": "120:34:05:U" },
    { "id": "MFE", "name": "MC ALLEN MILLER INTERNATIONAL", "city": "MCALLEN", "country": "USA", "latitude": "26:10:33:N", "longitude": "98:14:19:U" },
    { "id": "MGE", "name": "DOBBINS ARB", "city": "MARIETTA", "country": "USA", "latitude": "33:54:55:N", "longitude": "84:30:58:U" },
    { "id": "MHR", "name": "SACRAMENTO MATHER", "city": "SACRAMENTO", "country": "USA", "latitude": "38:33:14:N", "longitude": "121:17:51:U" },
    { "id": "MIA", "name": "MIAMI INTERNATIONAL", "city": "MIAMI", "country": "USA", "latitude": "25:47:35:N", "longitude": "80:17:26:U" },
    { "id": "MIB", "name": "MINOT AFB", "city": "MINOT", "country": "USA", "latitude": "48:24:56:N", "longitude": "101:21:27:U" },
    { "id": "MIV", "name": "MILLVILLE MUNI", "city": "MILLVILLE", "country": "USA", "latitude": "39:22:04:N", "longitude": "75:04:20:U" },
    { "id": "MKE", "name": "GENERAL MITCHELL INTERNATIONAL", "city": "MILWAUKEE", "country": "USA", "latitude": "42:56:50:N", "longitude": "87:53:47:U" },
    { "id": "MKL", "name": "MC KELLAR SIPES RGNL", "city": "JACKSON", "country": "USA", "latitude": "35:35:59:N", "longitude": "88:54:56:U" },
    { "id": "MKO", "name": "DAVIS FLD", "city": "MUSKOGEE", "country": "USA", "latitude": "35:39:27:N", "longitude": "95:21:41:U" },
    { "id": "MLB", "name": "MELBOURNE INTERNATIONAL", "city": "MELBOURNE", "country": "USA", "latitude": "28:06:09:N", "longitude": "80:38:42:U" },
    { "id": "MLC", "name": "MC ALESTER RGNL", "city": "MCALESTER", "country": "USA", "latitude": "34:52:56:N", "longitude": "95:47:00:U" },
    { "id": "MLT", "name": "MILLINOCKET MUNI", "city": "MILLINOCKET", "country": "USA", "latitude": "45:38:52:N", "longitude": "68:41:08:U" },
    { "id": "MLU", "name": "MONROE RGNL", "city": "MONROE", "country": "USA", "latitude": "32:30:39:N", "longitude": "92:02:15:U" },
    { "id": "MMV", "name": "MC MINNVILLE MUNI", "city": "MACKMINNVILLE", "country": "USA", "latitude": "45:11:40:N", "longitude": "123:08:09:U" },
    { "id": "MNM", "name": "MENOMINEE MARINETTE TWIN CO", "city": "MACON", "country": "USA", "latitude": "45:07:35:N", "longitude": "87:38:18:U" },
    { "id": "MOB", "name": "MOBILE RGNL", "city": "MOBILE", "country": "USA", "latitude": "30:41:29:N", "longitude": "88:14:34:U" },
    { "id": "MOD", "name": "MODESTO CITY CO HARRY SHAM", "city": "MODESTO", "country": "USA", "latitude": "37:37:32:N", "longitude": "120:57:15:U" },
    { "id": "MOT", "name": "MINOT INTERNATIONAL", "city": "MINOT", "country": "USA", "latitude": "48:15:33:N", "longitude": "101:16:49:U" },
    { "id": "MPV", "name": "EDWARD F KNAPP STATE", "city": "MONTPELIER", "country": "USA", "latitude": "44:12:12:N", "longitude": "72:33:44:U" },
    { "id": "MQT", "name": "SAWYER INTERNATIONAL", "city": "MARQUETTE", "country": "USA", "latitude": "46:32:02:N", "longitude": "87:33:42:U" },
    { "id": "MSN", "name": "DANE CO RGNL TRUAX FLD", "city": "MADISON", "country": "USA", "latitude": "43:08:23:N", "longitude": "89:20:15:U" },
    { "id": "MSP", "name": "MINNEAPOLIS ST PAUL INTERNATIONAL", "city": "MINNEAPOLIS", "country": "USA", "latitude": "44:52:49:N", "longitude": "93:13:00:U" },
    { "id": "MSS", "name": "MASSENA INTERNATIONAL RICHARDS FLD", "city": "MASSENA", "country": "USA", "latitude": "44:56:09:N", "longitude": "74:50:43:U" },
    { "id": "MSY", "name": "LOUIS ARMSTRONG NEW ORLEANS INTERNATIONAL", "city": "NEW ORLEANS", "country": "USA", "latitude": "29:59:36:N", "longitude": "90:15:28:U" },
    { "id": "MTC", "name": "SELFRIDGE ANGB", "city": "MOUNT CLEMENS", "country": "USA", "latitude": "42:36:46:N", "longitude": "82:49:54:U" },
    { "id": "MUI", "name": "MUIR AAF", "city": "MUIR", "country": "USA", "latitude": "40:26:05:N", "longitude": "76:34:09:U" },
    { "id": "MUO", "name": "MOUNTAIN HOME AFB", "city": "MOUNTAIN HOME", "country": "USA", "latitude": "43:02:36:N", "longitude": "115:52:20:U" },
    { "id": "MWH", "name": "GRANT CO INTERNATIONAL", "city": "GRANT COUNTY AIRPORT", "country": "USA", "latitude": "47:12:27:N", "longitude": "119:19:12:U" },
    { "id": "MWL", "name": "MINERAL WELLS", "city": "MINERAL WELLS", "country": "USA", "latitude": "32:46:53:N", "longitude": "98:03:36:U" },
    { "id": "MXF", "name": "MAXWELL AFB", "city": "MONTGOMERY", "country": "USA", "latitude": "32:22:45:N", "longitude": "86:21:45:U" },
    { "id": "MYR", "name": "MYRTLE BEACH INTERNATIONAL", "city": "MYRTLE BEACH", "country": "USA", "latitude": "33:40:47:N", "longitude": "78:55:42:U" },
    { "id": "NBC", "name": "BEAUFORT MCAS", "city": "BEAUFORT", "country": "USA", "latitude": "32:28:38:N", "longitude": "80:43:23:U" },
    { "id": "NBG", "name": "NEW ORLEANS NAS JRB", "city": "NEW ORLEANS", "country": "USA", "latitude": "29:49:31:N", "longitude": "90:02:06:U" },
    { "id": "NCA", "name": "NEW RIVER MCAS", "city": "JACKSONVILLE", "country": "USA", "latitude": "34:42:30:N", "longitude": "77:26:22:U" },
    { "id": "NEL", "name": "LAKEHURST NAES", "city": "LAKEHURST", "country": "USA", "latitude": "40:02:00:N", "longitude": "74:21:12:U" },
    { "id": "NFL", "name": "FALLON NAS", "city": "FALLON", "country": "USA", "latitude": "39:24:59:N", "longitude": "118:42:03:U" },
    { "id": "NGU", "name": "NORFOLK NS", "city": "NORFOLK", "country": "USA", "latitude": "36:56:15:N", "longitude": "76:17:21:U" },
    { "id": "NHK", "name": "PATUXENT RIVER NAS", "city": "PATUXENT RIVER", "country": "USA", "latitude": "38:17:09:N", "longitude": "76:24:42:U" },
    { "id": "NID", "name": "CHINA LAKE NAWS", "city": "CHINA", "country": "USA", "latitude": "35:41:16:N", "longitude": "117:41:26:U" },
    { "id": "NIP", "name": "JACKSONVILLE NAS", "city": "JACKSONVILLE", "country": "USA", "latitude": "30:14:09:N", "longitude": "81:40:50:U" },
    { "id": "NJK", "name": "EL CENTRO NAF", "city": "EL CENTRO", "country": "USA", "latitude": "32:49:45:N", "longitude": "115:40:18:U" },
    { "id": "NKT", "name": "CHERRY POINT MCAS", "city": "CHERRY POINT", "country": "USA", "latitude": "34:54:09:N", "longitude": "76:52:51:U" },
    { "id": "NKX", "name": "MIRAMAR MCAS", "city": "MIRAMAR", "country": "USA", "latitude": "32:52:06:N", "longitude": "117:08:33:U" },
    { "id": "NLC", "name": "LEMOORE NAS", "city": "LEMOORE", "country": "USA", "latitude": "36:19:58:N", "longitude": "119:57:07:U" },
    { "id": "NMM", "name": "MERIDIAN NAS", "city": "MERIDIAN", "country": "USA", "latitude": "32:33:07:N", "longitude": "88:33:20:U" },
    { "id": "NOW", "name": "PORT ANGELES CGAS", "city": "PORT ANGELES", "country": "USA", "latitude": "48:08:29:N", "longitude": "123:24:50:U" },
    { "id": "NPA", "name": "PENSACOLA NAS", "city": "PENSACOLA", "country": "USA", "latitude": "30:21:09:N", "longitude": "87:19:07:U" },
    { "id": "NQA", "name": "MILLINGTON MUNI", "city": "MILLINGTON", "country": "USA", "latitude": "35:21:24:N", "longitude": "89:52:13:U" },
    { "id": "NQI", "name": "KINGSVILLE NAS", "city": "KINGSVILLE", "country": "USA", "latitude": "27:30:26:N", "longitude": "97:48:35:U" },
    { "id": "NQX", "name": "KEY WEST NAS", "city": "KEY WEST", "country": "USA", "latitude": "24:34:33:N", "longitude": "81:41:20:U" },
    { "id": "NSE", "name": "WHITING FLD NAS NORTH", "city": "MILTON", "country": "USA", "latitude": "30:43:27:N", "longitude": "87:01:19:U" },
    { "id": "NTD", "name": "POINT MUGU NAS", "city": "POINT MUGU", "country": "USA", "latitude": "34:07:13:N", "longitude": "119:07:15:U" },
    { "id": "NTK", "name": "TUSTIN MCAF", "city": "TUSTIN", "country": "USA", "latitude": "33:42:22:N", "longitude": "117:49:38:U" },
    { "id": "NTU", "name": "OCEANA NAS", "city": "OCEANA", "country": "USA", "latitude": "36:49:14:N", "longitude": "76:02:00:U" },
    { "id": "NUQ", "name": "MOFFETT FEDERAL AFLD", "city": "MOUNTAIN VIEW", "country": "USA", "latitude": "37:24:54:N", "longitude": "122:02:53:U" },
    { "id": "NUW", "name": "WHIDBEY ISLAND NAS", "city": "WHIDBEY ISLAND", "country": "USA", "latitude": "48:21:06:N", "longitude": "122:39:21:U" },
    { "id": "NXP", "name": "TWENTYNINE PALMS EAF", "city": "TWENTY NINE PALMS", "country": "USA", "latitude": "34:17:46:N", "longitude": "116:09:43:U" },
    { "id": "NXX", "name": "WILLOW GROVE NAS JRB", "city": "WILLOW GROVE", "country": "USA", "latitude": "40:11:59:N", "longitude": "75:08:53:U" },
    { "id": "NYG", "name": "QUANTICO MCAF", "city": "QUANTICO", "country": "USA", "latitude": "38:30:06:N", "longitude": "77:18:19:U" },
    { "id": "NZC", "name": "CECIL FLD", "city": "JACKSONVILLE", "country": "USA", "latitude": "30:13:07:N", "longitude": "81:52:35:U" },
    { "id": "NZY", "name": "NORTH ISLAND NAS", "city": "SAN DIEGO", "country": "USA", "latitude": "32:41:57:N", "longitude": "117:12:55:U" },
    { "id": "OAK", "name": "METROPOLITAN OAKLAND INTERNATIONAL", "city": "OAKLAND", "country": "USA", "latitude": "37:43:16:N", "longitude": "122:13:14:U" },
    { "id": "OFF", "name": "OFFUTT AFB", "city": "OMAHA", "country": "USA", "latitude": "41:07:06:N", "longitude": "95:54:45:U" },
    { "id": "OGS", "name": "OGDENSBURG INTERNATIONAL", "city": "OGDENSBURG", "country": "USA", "latitude": "44:40:55:N", "longitude": "75:27:56:U" },
    { "id": "OKC", "name": "WILL ROGERS WORLD", "city": "OKLAHOMA CITY", "country": "USA", "latitude": "35:23:35:N", "longitude": "97:36:02:U" },
    { "id": "OLS", "name": "NOGALES INTERNATIONAL", "city": "NOGALES", "country": "USA", "latitude": "31:25:03:N", "longitude": "110:50:52:U" },
    { "id": "OMA", "name": "EPPLEY AFLD", "city": "OMAHA", "country": "USA", "latitude": "41:18:09:N", "longitude": "95:53:37:U" },
    { "id": "ONT", "name": "ONTARIO INTERNATIONAL", "city": "ONTARIO", "country": "USA", "latitude": "34:03:21:N", "longitude": "117:36:04:U" },
    { "id": "OPF", "name": "OPA LOCKA", "city": "MIAMI", "country": "USA", "latitude": "25:54:25:N", "longitude": "80:16:42:U" },
    { "id": "ORD", "name": "CHICAGO OHARE INTERNATIONAL", "city": "CHICAGO", "country": "USA", "latitude": "41:58:46:N", "longitude": "87:54:16:U" },
    { "id": "ORF", "name": "NORFOLK INTERNATIONAL", "city": "NORFOLK", "country": "USA", "latitude": "36:53:40:N", "longitude": "76:12:04:U" },
    { "id": "ORL", "name": "EXECUTIVE", "city": "ORLANDO", "country": "USA", "latitude": "28:32:43:N", "longitude": "81:19:58:U" },
    { "id": "N/A", "name": "OSCODA WURTSMITH", "city": "OSCODA", "country": "USA", "latitude": "44:27:05:N", "longitude": "83:23:38:U" },
    { "id": "PAE", "name": "SNOHOMISH CO", "city": "EVERETT", "country": "USA", "latitude": "47:54:22:N", "longitude": "122:16:53:U" },
    { "id": "PAM", "name": "TYNDALL AFB", "city": "PANAMA CITY", "country": "USA", "latitude": "30:04:11:N", "longitude": "85:34:35:U" },
    { "id": "PBF", "name": "GRIDER FLD", "city": "PINE BLUFF", "country": "USA", "latitude": "34:10:29:N", "longitude": "91:56:04:U" },
    { "id": "PBG", "name": "PLATTSBURGH INTERNATIONAL", "city": "PLATTSBURGH", "country": "USA", "latitude": "44:39:03:N", "longitude": "73:28:05:U" },
    { "id": "PBI", "name": "PALM BEACH INTERNATIONAL", "city": "WEST PALM BEACH", "country": "USA", "latitude": "26:40:59:N", "longitude": "80:05:44:U" },
    { "id": "PDX", "name": "PORTLAND INTERNATIONAL", "city": "PORTLAND", "country": "USA", "latitude": "45:35:19:N", "longitude": "122:35:51:U" },
    { "id": "PHF", "name": "NEWPORT NEWS WILLIAMSBURG INTERNATIONAL", "city": "NEWPORT NEWS", "country": "USA", "latitude": "37:07:54:N", "longitude": "76:29:34:U" },
    { "id": "PHL", "name": "PHILADELPHIA INTERNATIONAL", "city": "PHILADELPHIA", "country": "USA", "latitude": "39:52:19:N", "longitude": "75:14:28:U" },
    { "id": "PHN", "name": "ST CLAIR CO INTERNATIONAL", "city": "PORT HURON", "country": "USA", "latitude": "42:54:39:N", "longitude": "82:31:43:U" },
    { "id": "PHX", "name": "PHOENIX SKY HARBOR INTERNATIONAL", "city": "PHOENIX", "country": "USA", "latitude": "33:26:03:N", "longitude": "112:00:29:U" },
    { "id": "PIE", "name": "ST PETERSBURG CLEARWATER INTERNATIONAL", "city": "ST. PETERSBURG", "country": "USA", "latitude": "27:54:38:N", "longitude": "82:41:14:U" },
    { "id": "PIT", "name": "PITTSBURGH INTERNATIONAL", "city": "PITTSBURGH (PENNSYLVA)", "country": "USA", "latitude": "40:29:29:N", "longitude": "80:13:58:U" },
    { "id": "N/A", "name": "PEMBINA MUNI", "city": "PEMBINA", "country": "USA", "latitude": "48:56:33:N", "longitude": "97:14:27:U" },
    { "id": "PMD", "name": "PALMDALE PROD FLT TEST INSTL AF PLT 42", "city": "PALMDALE", "country": "USA", "latitude": "34:37:45:N", "longitude": "118:05:04:U" },
    { "id": "PNC", "name": "PONCA CITY MUNI", "city": "PONCA CITY", "country": "USA", "latitude": "36:43:50:N", "longitude": "97:05:59:U" },
    { "id": "PNE", "name": "NORTHEAST PHILADELPHIA", "city": "PHILADELPHIA", "country": "USA", "latitude": "40:04:55:N", "longitude": "75:00:38:U" },
    { "id": "PNM", "name": "PRINCETON MUNI", "city": "PRINCETON", "country": "USA", "latitude": "45:33:35:N", "longitude": "93:36:29:U" },
    { "id": "PNS", "name": "PENSACOLA RGNL", "city": "PENSACOLA", "country": "USA", "latitude": "30:28:23:N", "longitude": "87:11:14:U" },
    { "id": "POB", "name": "POPE AFB", "city": "FAYETTEVILLE", "country": "USA", "latitude": "35:10:15:N", "longitude": "79:00:52:U" },
    { "id": "POE", "name": "POLK AAF", "city": "FORT POLK", "country": "USA", "latitude": "31:02:41:N", "longitude": "93:11:29:U" },
    { "id": "PQI", "name": "NORTHERN MAINE RGNL AT PRESQUE ISLE", "city": "PRESQUE ISLE", "country": "USA", "latitude": "46:41:20:N", "longitude": "68:02:41:U" },
    { "id": "PRC", "name": "ERNEST A LOVE FLD", "city": "PRESCOTT", "country": "USA", "latitude": "34:39:16:N", "longitude": "112:25:10:U" },
    { "id": "PSP", "name": "PALM SPRINGS INTERNATIONAL", "city": "PALM SPRINGS", "country": "USA", "latitude": "33:49:46:N", "longitude": "116:30:24:U" },
    { "id": "PSX", "name": "PALACIOS MUNI", "city": "PALACIOS", "country": "USA", "latitude": "28:43:39:N", "longitude": "96:15:03:U" },
    { "id": "PUB", "name": "PUEBLO MEM", "city": "PUEBLO MEMORIAL", "country": "USA", "latitude": "38:17:20:N", "longitude": "104:29:47:U" },
    { "id": "PVD", "name": "THEODORE FRANCIS GREEN STATE", "city": "PROVIDENCE", "country": "USA", "latitude": "41:43:26:N", "longitude": "71:25:41:U" },
    { "id": "PWM", "name": "PORTLAND INTERNATIONAL JETPORT", "city": "PORTLAND", "country": "USA", "latitude": "43:38:46:N", "longitude": "70:18:31:U" },
    { "id": "RAL", "name": "RIVERSIDE MUNI", "city": "RIVERSIDE", "country": "USA", "latitude": "33:57:06:N", "longitude": "117:26:42:U" },
    { "id": "RBM", "name": "ROBINSON AAF", "city": "ROBINSON", "country": "USA", "latitude": "34:51:00:N", "longitude": "92:18:00:U" },
    { "id": "RCA", "name": "ELLSWORTH AFB", "city": "RAPID CITY", "country": "USA", "latitude": "44:08:42:N", "longitude": "103:06:12:U" },
    { "id": "RDR", "name": "GRAND FORKS AFB", "city": "RED RIVER", "country": "USA", "latitude": "47:57:39:N", "longitude": "97:24:04:U" },
    { "id": "RDU", "name": "RALEIGH DURHAM INTERNATIONAL", "city": "RALEIGH-DURHAM", "country": "USA", "latitude": "35:52:39:N", "longitude": "78:47:14:U" },
    { "id": "RIC", "name": "RICHMOND INTERNATIONAL", "city": "RICHMOND", "country": "USA", "latitude": "37:30:18:N", "longitude": "77:19:10:U" },
    { "id": "RIU", "name": "RANCHO MURIETA", "city": "RANCHO MURIETA", "country": "USA", "latitude": "38:29:19:N", "longitude": "121:06:08:U" },
    { "id": "RIV", "name": "MARCH ARB", "city": "RIVERSIDE", "country": "USA", "latitude": "33:52:50:N", "longitude": "117:15:34:U" },
    { "id": "RME", "name": "GRIFFISS AIRPARK", "city": "ROME", "country": "USA", "latitude": "43:14:01:N", "longitude": "75:24:25:U" },
    { "id": "RND", "name": "RANDOLPH AFB", "city": "SAN ANTONIO", "country": "USA", "latitude": "29:31:46:N", "longitude": "98:16:44:U" },
    { "id": "RNO", "name": "RENO TAHOE INTERNATIONAL", "city": "RENO", "country": "USA", "latitude": "39:29:54:N", "longitude": "119:46:05:U" },
    { "id": "ROC", "name": "GREATER ROCHESTER INTERNATIONAL", "city": "ROCHESTER", "country": "USA", "latitude": "43:07:07:N", "longitude": "77:40:20:U" },
    { "id": "ROW", "name": "ROSWELL INDUSTRIAL AIR CENTER", "city": "ROSWELL", "country": "USA", "latitude": "33:18:05:N", "longitude": "104:31:50:U" },
    { "id": "RSW", "name": "SOUTHWEST FLORIDA INTERNATIONAL", "city": "FORT MYERS", "country": "USA", "latitude": "26:32:10:N", "longitude": "81:45:18:U" },
    { "id": "SAC", "name": "SACRAMENTO EXECUTIVE", "city": "SACRAMENTO", "country": "USA", "latitude": "38:30:45:N", "longitude": "121:29:36:U" },
    { "id": "SAF", "name": "SANTA FE MUNI", "city": "SANTA FE", "country": "USA", "latitude": "35:37:00:N", "longitude": "106:05:17:U" },
    { "id": "SAN", "name": "SAN DIEGO INTERNATIONAL LINDBERGH FLD", "city": "SAN DIEGO", "country": "USA", "latitude": "32:44:00:N", "longitude": "117:11:22:U" },
    { "id": "SAT", "name": "SAN ANTONIO INTERNATIONAL", "city": "SAN ANTONIO", "country": "USA", "latitude": "29:32:01:N", "longitude": "98:28:11:U" },
    { "id": "SAV", "name": "SAVANNAH HILTON HEAD INTERNATIONAL", "city": "SAVANNAH", "country": "USA", "latitude": "32:07:39:N", "longitude": "81:12:07:U" },
    { "id": "N/A", "name": "SAWYER INTERNATIONAL", "city": "GWINN", "country": "USA", "latitude": "46:21:13:N", "longitude": "87:23:45:U" },
    { "id": "SBO", "name": "EMANUEL CO", "city": "SANTA BARBARA", "country": "USA", "latitude": "32:36:30:N", "longitude": "82:22:07:U" },
    { "id": "SBY", "name": "SALISBURY OCEAN CITY WICOMICO RGNL", "city": "SALISBURY", "country": "USA", "latitude": "38:20:25:N", "longitude": "75:30:37:U" },
    { "id": "SCK", "name": "STOCKTON METROPOLITAN", "city": "STOCKTON", "country": "USA", "latitude": "37:53:39:N", "longitude": "121:14:19:U" },
    { "id": "SEA", "name": "SEATTLE TACOMA INTERNATIONAL", "city": "SEATTLE", "country": "USA", "latitude": "47:26:56:N", "longitude": "122:18:33:U" },
    { "id": "SEM", "name": "CRAIG FLD", "city": "SELMA", "country": "USA", "latitude": "32:20:38:N", "longitude": "86:59:16:U" },
    { "id": "SFF", "name": "FELTS FLD", "city": "SPOKANE", "country": "USA", "latitude": "47:40:58:N", "longitude": "117:19:21:U" },
    { "id": "SFO", "name": "SAN FRANCISCO INTERNATIONAL", "city": "SAN FRANCISCO", "country": "USA", "latitude": "37:37:08:N", "longitude": "122:22:29:U" },
    { "id": "SFZ", "name": "NORTH CENTRAL STATE", "city": "SMITHFIELD", "country": "USA", "latitude": "41:55:14:N", "longitude": "71:29:28:U" },
    { "id": "SHV", "name": "SHREVEPORT RGNL", "city": "SHREVEPORT", "country": "USA", "latitude": "32:26:47:N", "longitude": "93:49:32:U" },
    { "id": "SJC", "name": "NORMAN Y MINETA SAN JOSE INTERNATIONAL", "city": "SAN JOSE", "country": "USA", "latitude": "37:21:42:N", "longitude": "121:55:44:U" },
    { "id": "SJT", "name": "SAN ANGELO RGNL MATHIS FLD", "city": "SAN ANGELO", "country": "USA", "latitude": "31:21:27:N", "longitude": "100:29:46:U" },
    { "id": "SKA", "name": "FAIRCHILD AFB", "city": "SPOKANE", "country": "USA", "latitude": "47:36:54:N", "longitude": "117:39:20:U" },
    { "id": "SKF", "name": "LACKLAND AFB KELLY FLD ANNEX", "city": "SAN ANTONIO", "country": "USA", "latitude": "29:23:03:N", "longitude": "98:34:51:U" },
    { "id": "SKY", "name": "GRIFFING SANDUSKY", "city": "SANDUSKY", "country": "USA", "latitude": "41:26:00:N", "longitude": "82:39:08:U" },
    { "id": "SLC", "name": "SALT LAKE CITY INTERNATIONAL", "city": "SALT LAKE CITY", "country": "USA", "latitude": "40:47:18:N", "longitude": "111:58:39:U" },
    { "id": "SMF", "name": "SACRAMENTO INTERNATIONAL", "city": "SACRAMENTO", "country": "USA", "latitude": "38:41:43:N", "longitude": "121:35:26:U" },
    { "id": "SNA", "name": "JOHN WAYNE ARPT ORANGE CO", "city": "SANTA ANA", "country": "USA", "latitude": "33:40:32:N", "longitude": "117:52:05:U" },
    { "id": "SPB", "name": "SCAPPOOSE INDUSTRIAL AIRPARK", "city": "SAN LUIS", "country": "USA", "latitude": "45:46:21:N", "longitude": "122:51:44:U" },
    { "id": "SPG", "name": "ALBERT WHITTED", "city": "ST. PETERSBURG", "country": "USA", "latitude": "27:45:54:N", "longitude": "82:37:37:U" },
    { "id": "SPS", "name": "SHEPPARD AFB WICHITA FALLS MUNI", "city": "WICHITA FALLS", "country": "USA", "latitude": "33:59:19:N", "longitude": "98:29:30:U" },
    { "id": "SSC", "name": "SHAW AFB", "city": "SUMTER", "country": "USA", "latitude": "33:58:22:N", "longitude": "80:28:22:U" },
    { "id": "STL", "name": "LAMBERT ST LOUIS INTERNATIONAL", "city": "ST. LOUIS", "country": "USA", "latitude": "38:44:51:N", "longitude": "90:21:35:U" },
    { "id": "SUU", "name": "TRAVIS AFB", "city": "FAIRFIELD", "country": "USA", "latitude": "38:15:45:N", "longitude": "121:55:38:U" },
    { "id": "SUX", "name": "SIOUX GATEWAY COL BUD DAY FLD", "city": "SIOUX CITY", "country": "USA", "latitude": "42:24:09:N", "longitude": "96:23:03:U" },
    { "id": "SVN", "name": "HUNTER AAF", "city": "HUNTER AAF", "country": "USA", "latitude": "32:00:36:N", "longitude": "81:08:44:U" },
    { "id": "SWF", "name": "STEWART INTERNATIONAL", "city": "NEWBURGH", "country": "USA", "latitude": "41:30:14:N", "longitude": "74:06:17:U" },
    { "id": "SYR", "name": "SYRACUSE HANCOCK INTERNATIONAL", "city": "SYRACUSE", "country": "USA", "latitude": "43:06:40:N", "longitude": "76:06:22:U" },
    { "id": "SZL", "name": "WHITEMAN AFB", "city": "KNOBNOSTER", "country": "USA", "latitude": "38:43:49:N", "longitude": "93:32:52:U" },
    { "id": "TBN", "name": "WAYNESVILLE RGNL ARPT AT FORNEY FLD", "city": "FORT LEONARDWOOD", "country": "USA", "latitude": "37:44:29:N", "longitude": "92:08:26:U" },
    { "id": "TCC", "name": "TUCUMCARI MUNI", "city": "TUCUMCARI", "country": "USA", "latitude": "35:10:58:N", "longitude": "103:36:11:U" },
    { "id": "TCM", "name": "MC CHORD AFB", "city": "TACOMA", "country": "USA", "latitude": "47:08:15:N", "longitude": "122:28:35:U" },
    { "id": "TCS", "name": "TRUTH OR CONSEQUENCES MUNI", "city": "TRUTH OR CONSEQUENCES", "country": "USA", "latitude": "33:14:13:N", "longitude": "107:16:18:U" },
    { "id": "TEB", "name": "TETERBORO", "city": "TETERBORO", "country": "USA", "latitude": "40:50:59:N", "longitude": "74:03:39:U" },
    { "id": "TIK", "name": "TINKER AFB", "city": "OKLAHOMA CITY", "country": "USA", "latitude": "35:24:53:N", "longitude": "97:23:11:U" },
    { "id": "TLH", "name": "TALLAHASSEE RGNL", "city": "TALLAHASSEE", "country": "USA", "latitude": "30:23:47:N", "longitude": "84:21:01:U" },
    { "id": "TMB", "name": "KENDALL TAMIAMI EXECUTIVE", "city": "KENDALL-TAMIAMI", "country": "USA", "latitude": "25:38:52:N", "longitude": "80:25:58:U" },
    { "id": "TNT", "name": "DADE COLLIER TRAINING AND TRANSITION", "city": "MIAMI", "country": "USA", "latitude": "25:51:42:N", "longitude": "80:53:49:U" },
    { "id": "N/A", "name": "TONOPAH TEST RANGE", "city": "TONOPAH", "country": "USA", "latitude": "37:47:40:N", "longitude": "116:46:43:U" },
    { "id": "TPA", "name": "TAMPA INTERNATIONAL", "city": "TAMPA", "country": "USA", "latitude": "27:58:31:N", "longitude": "82:31:59:U" },
    { "id": "TTN", "name": "TRENTON MERCER", "city": "TRENTON", "country": "USA", "latitude": "40:16:36:N", "longitude": "74:48:48:U" },
    { "id": "TUL", "name": "TULSA INTERNATIONAL", "city": "TULSA", "country": "USA", "latitude": "36:11:54:N", "longitude": "95:53:17:U" },
    { "id": "TUS", "name": "TUCSON INTERNATIONAL", "city": "TUCSON", "country": "USA", "latitude": "32:06:58:N", "longitude": "110:56:29:U" },
    { "id": "TXK", "name": "TEXARKANA RGNL WEBB FLD", "city": "TEXARKANA", "country": "USA", "latitude": "33:27:13:N", "longitude": "93:59:27:U" },
    { "id": "TYR", "name": "TYLER POUNDS RGNL", "city": "TYLER", "country": "USA", "latitude": "32:21:14:N", "longitude": "95:24:08:U" },
    { "id": "TYS", "name": "MC GHEE TYSON", "city": "KNOXVILLE", "country": "USA", "latitude": "35:48:44:N", "longitude": "83:59:34:U" },
    { "id": "UGN", "name": "WAUKEGAN RGNL", "city": "CHICAGO", "country": "USA", "latitude": "42:25:19:N", "longitude": "87:52:04:U" },
    { "id": "VAD", "name": "MOODY AFB", "city": "VALDOSTA", "country": "USA", "latitude": "30:58:04:N", "longitude": "83:11:34:U" },
    { "id": "VBG", "name": "VANDENBERG AFB", "city": "LOMPOC", "country": "USA", "latitude": "34:43:46:N", "longitude": "120:34:36:U" },
    { "id": "VCV", "name": "SOUTHERN CALIFORNIA LOGISTICS", "city": "VICTORVILLE", "country": "USA", "latitude": "34:35:35:N", "longitude": "117:22:46:U" },
    { "id": "VRB", "name": "VERO BEACH MUNI", "city": "VERO BEACH", "country": "USA", "latitude": "27:39:20:N", "longitude": "80:25:04:U" },
    { "id": "WAL", "name": "WALLOPS FLIGHT FACILITY", "city": "WALLOPS ISLAND", "country": "USA", "latitude": "37:56:24:N", "longitude": "75:27:59:U" },
    { "id": "WRB", "name": "ROBINS AFB", "city": "MACON", "country": "USA", "latitude": "32:38:24:N", "longitude": "83:35:30:U" },
    { "id": "WRI", "name": "MC GUIRE AFB", "city": "WRIGHTSTOWN", "country": "USA", "latitude": "40:00:56:N", "longitude": "74:35:37:U" },
    { "id": "WSD", "name": "CONDRON AAF", "city": "WHITE SANDS", "country": "USA", "latitude": "32:20:29:N", "longitude": "106:24:09:U" },
    { "id": "WWD", "name": "CAPE MAY CO", "city": "WILDWOOD", "country": "USA", "latitude": "39:00:30:N", "longitude": "74:54:29:U" },
    { "id": "YIP", "name": "WILLOW RUN", "city": "DETROIT", "country": "USA", "latitude": "42:14:16:N", "longitude": "83:31:49:U" },
    { "id": "YNG", "name": "YOUNGSTOWN WARREN RGNL", "city": "YOUNGSTOWN", "country": "USA", "latitude": "41:15:38:N", "longitude": "80:40:44:U" },
    { "id": "YUM", "name": "YUMA MCAS YUMA INTERNATIONAL", "city": "YUMA", "country": "USA", "latitude": "32:39:23:N", "longitude": "114:36:21:U" },
    { "id": "ZUN", "name": "BLACK ROCK", "city": "ZUNI PUEBLO", "country": "USA", "latitude": "35:05:00:N", "longitude": "108:47:30:U" },
    { "id": "PAQ", "name": "PALMER MUNI", "city": "PALMER", "country": "USA", "latitude": "61:35:41:N", "longitude": "149:05:19:U" },
    { "id": "BTI", "name": "BARTER ISLAND LRRS", "city": "BARTER ISLAND", "country": "USA", "latitude": "70:08:02:N", "longitude": "143:34:37:U" },
    { "id": "BET", "name": "BETHEL", "city": "BETHEL", "country": "USA", "latitude": "60:46:47:N", "longitude": "161:50:16:U" },
    { "id": "BIG", "name": "ALLEN AAF", "city": "DELTA JUNCTION", "country": "USA", "latitude": "63:59:40:N", "longitude": "145:43:17:U" },
    { "id": "N/A", "name": "BIG MOUNTAIN AFS", "city": "BIG MOUNTAIN", "country": "USA", "latitude": "59:21:42:N", "longitude": "155:15:26:U" },
    { "id": "BRW", "name": "WILEY POST WILL ROGERS MEM", "city": "BARROW", "country": "USA", "latitude": "71:17:07:N", "longitude": "156:45:57:U" },
    { "id": "BTT", "name": "BETTLES", "city": "BETTLES", "country": "USA", "latitude": "66:54:55:N", "longitude": "151:31:41:U" },
    { "id": "CDB", "name": "COLD BAY", "city": "COLD BAY", "country": "USA", "latitude": "55:12:20:N", "longitude": "162:43:27:U" },
    { "id": "N/A", "name": "CLEAR", "city": "CLEAR MEWS", "country": "USA", "latitude": "64:18:04:N", "longitude": "149:07:12:U" },
    { "id": "CDV", "name": "MERLE K MUDHOLE SMITH", "city": "CORDOVA", "country": "USA", "latitude": "60:29:30:N", "longitude": "145:28:39:U" },
    { "id": "N/A", "name": "CAPE ROMANZOF LRRS", "city": "CAPE ROMANZOF", "country": "USA", "latitude": "61:46:49:N", "longitude": "166:02:19:U" },
    { "id": "ADK", "name": "ADAK", "city": "ADAK ISLAND", "country": "USA", "latitude": "51:52:40:N", "longitude": "176:38:45:U" },
    { "id": "DLG", "name": "DILLINGHAM", "city": "DILLINGHAM", "country": "USA", "latitude": "59:02:43:N", "longitude": "158:30:12:U" },
    { "id": "ADQ", "name": "KODIAK", "city": "KODIAK", "country": "USA", "latitude": "57:45:00:N", "longitude": "152:29:37:U" },
    { "id": "DUT", "name": "UNALASKA", "city": "UNALASKA", "country": "USA", "latitude": "53:54:00:N", "longitude": "166:32:36:U" },
    { "id": "EDF", "name": "ELMENDORF AFB", "city": "ANCHORAGE", "country": "USA", "latitude": "61:15:04:N", "longitude": "149:48:23:U" },
    { "id": "EHM", "name": "CAPE NEWENHAM LRRS", "city": "CAPE NEWENHAM", "country": "USA", "latitude": "58:38:50:N", "longitude": "162:03:38:U" },
    { "id": "EIL", "name": "EIELSON AFB", "city": "FAIRBANKS", "country": "USA", "latitude": "64:39:56:N", "longitude": "147:06:05:U" },
    { "id": "ENA", "name": "KENAI MUNI", "city": "KENAI", "country": "USA", "latitude": "60:34:23:N", "longitude": "151:14:42:U" },
    { "id": "FAI", "name": "FAIRBANKS INTERNATIONAL", "city": "FAIRBANKS", "country": "USA", "latitude": "64:48:54:N", "longitude": "147:51:22:U" },
    { "id": "FBK", "name": "WAINWRIGHT AAF", "city": "FORT WAINWRIGHT", "country": "USA", "latitude": "64:50:15:N", "longitude": "147:36:52:U" },
    { "id": "N/A", "name": "BRYANT AHP", "city": "FORT RICHARDSON", "country": "USA", "latitude": "61:15:58:N", "longitude": "149:39:11:U" },
    { "id": "GAL", "name": "EDWARD G PITKA SR", "city": "GALENA", "country": "USA", "latitude": "64:44:10:N", "longitude": "156:56:14:U" },
    { "id": "GKN", "name": "GULKANA", "city": "GULKANA", "country": "USA", "latitude": "62:09:17:N", "longitude": "145:27:23:U" },
    { "id": "SGY", "name": "SKAGWAY", "city": "SKAGWAY", "country": "USA", "latitude": "59:27:36:N", "longitude": "135:18:56:U" },
    { "id": "HOM", "name": "HOMER", "city": "HOMER", "country": "USA", "latitude": "59:38:44:N", "longitude": "151:28:35:U" },
    { "id": "ILI", "name": "ILIAMNA", "city": "ILIAMNA", "country": "USA", "latitude": "59:45:13:N", "longitude": "154:54:39:U" },
    { "id": "UTO", "name": "INDIAN MOUNTAIN LRRS", "city": "INDIAN MOUNTAINS", "country": "USA", "latitude": "65:59:34:N", "longitude": "153:42:15:U" },
    { "id": "JNU", "name": "JUNEAU INTERNATIONAL", "city": "JUNEAU", "country": "USA", "latitude": "58:21:17:N", "longitude": "134:34:34:U" },
    { "id": "AKN", "name": "KING SALMON", "city": "KING SALMON", "country": "USA", "latitude": "58:40:36:N", "longitude": "156:38:57:U" },
    { "id": "KTN", "name": "KETCHIKAN INTERNATIONAL", "city": "KETCHIKAN", "country": "USA", "latitude": "55:21:20:N", "longitude": "131:42:49:U" },
    { "id": "LUR", "name": "CAPE LISBURNE LRRS", "city": "CAPE LISBURNE", "country": "USA", "latitude": "68:52:30:N", "longitude": "166:06:36:U" },
    { "id": "MCG", "name": "MC GRATH", "city": "MCGRATH", "country": "USA", "latitude": "62:57:10:N", "longitude": "155:36:20:U" },
    { "id": "N/A", "name": "MIDDLETON ISLAND", "city": "MIDDLETON ISLAND", "country": "USA", "latitude": "59:26:59:N", "longitude": "146:18:31:U" },
    { "id": "MRI", "name": "MERRILL FLD", "city": "ANCHORAGE", "country": "USA", "latitude": "61:12:51:N", "longitude": "149:50:46:U" },
    { "id": "ANC", "name": "TED STEVENS ANCHORAGE INTERNATIONAL", "city": "ANCHORAGE", "country": "USA", "latitude": "61:10:27:N", "longitude": "149:59:46:U" },
    { "id": "ANN", "name": "ANNETTE ISLAND", "city": "ANNETTE ISLAND", "country": "USA", "latitude": "55:02:32:N", "longitude": "131:34:20:U" },
    { "id": "OME", "name": "NOME", "city": "NOME", "country": "USA", "latitude": "64:30:43:N", "longitude": "165:26:42:U" },
    { "id": "ORT", "name": "NORTHWAY", "city": "NORTHWAY", "country": "USA", "latitude": "62:57:40:N", "longitude": "141:55:44:U" },
    { "id": "OTZ", "name": "RALPH WIEN MEM", "city": "KOTZEBUE", "country": "USA", "latitude": "66:53:04:N", "longitude": "162:35:54:U" },
    { "id": "N/A", "name": "ST GEORGE", "city": "POINT BARROW", "country": "USA", "latitude": "56:34:42:N", "longitude": "169:39:41:U" },
    { "id": "PML", "name": "PLATINUM", "city": "PORT MOLLER", "country": "USA", "latitude": "59:00:40:N", "longitude": "161:49:10:U" },
    { "id": "SCC", "name": "DEADHORSE", "city": "DEADHORSE", "country": "USA", "latitude": "70:11:41:N", "longitude": "148:27:54:U" },
    { "id": "SIT", "name": "SITKA ROCKY GUTIERREZ", "city": "SITKA", "country": "USA", "latitude": "57:02:49:N", "longitude": "135:21:41:U" },
    { "id": "SNP", "name": "ST PAUL ISLAND", "city": "ST. PAUL ISLAND", "country": "USA", "latitude": "57:10:02:N", "longitude": "170:13:13:U" },
    { "id": "SVW", "name": "SPARREVOHN LRRS", "city": "SPARREVOHN", "country": "USA", "latitude": "61:05:50:N", "longitude": "155:34:27:U" },
    { "id": "TAL", "name": "RALPH M CALHOUN", "city": "TANANA", "country": "USA", "latitude": "65:10:27:N", "longitude": "152:06:33:U" },
    { "id": "TNC", "name": "TIN CITY LRRS", "city": "TIN CITY", "country": "USA", "latitude": "65:33:47:N", "longitude": "167:55:20:U" },
    { "id": "TKA", "name": "TALKEETNA", "city": "TALKEETNA", "country": "USA", "latitude": "62:19:13:N", "longitude": "150:05:37:U" },
    { "id": "TLJ", "name": "TATALINA LRRS", "city": "TATALINA", "country": "USA", "latitude": "62:53:39:N", "longitude": "155:58:35:U" },
    { "id": "UNK", "name": "UNALAKLEET", "city": "UNALAKLEET", "country": "USA", "latitude": "63:53:18:N", "longitude": "160:47:56:U" },
    { "id": "VDZ", "name": "VALDEZ PIONEER FIELD", "city": "VALDEZ", "country": "USA", "latitude": "61:08:02:N", "longitude": "146:14:54:U" },
    { "id": "AIN", "name": "WAINWRIGHT AS", "city": "FORT WAINWRIGHT", "country": "USA", "latitude": "70:36:48:N", "longitude": "159:51:37:U" },
    { "id": "YAK", "name": "YAKUTAT", "city": "YAKUTAT", "country": "USA", "latitude": "59:30:11:N", "longitude": "139:39:36:U" },
    { "id": "FYU", "name": "FORT YUKON", "city": "FORT YUKON", "country": "USA", "latitude": "66:34:17:N", "longitude": "145:15:01:U" },
    { "id": "UPP", "name": "UPOLU", "city": "OPOLU", "country": "USA", "latitude": "20:15:54:N", "longitude": "155:51:35:U" },
    { "id": "OLI", "name": "OLIKTOK LRRS", "city": "OLIKTOK POINT", "country": "USA", "latitude": "70:29:58:N", "longitude": "149:52:46:U" },
    { "id": "PIZ", "name": "POINT LAY LRRS", "city": "POINT LAY", "country": "USA", "latitude": "69:43:58:N", "longitude": "163:00:19:U" }
  ]
}
